{"locations":[
{"location": {"lat": 44.387335800, "lng": 7.545765300},	"title":	"Pizzeria Express S.N.C."},
{"location": {"lat": 44.387351800, "lng": 7.545329200},	"title":	"Bar Gelateria Corso"},
{"location": {"lat": 44.386390600, "lng": 7.539794400},	"title":	"Multisala Fiamma 4 - Cinelandia S.p.A."},
{"location": {"lat": 44.389564700, "lng": 7.547883600},	"title":	"Monumento a Giuseppe Barbaroux"},
{"location": {"lat": 44.390295500	, "lng": 7.548615000},	"title":	"Via Roma"},
{"location": {"lat": 44.390916800	, "lng": 7.548504500},	"title":	"Cattedrale di Santa Maria del Bosco"},
{"location": {"lat": 44.392384200	, "lng": 7.545860000},	"title":	"Open Baladin Cuneo"},
{"location": {"lat": 44.392205200	, "lng": 7.546335800},	"title":	"Piazza Foro Boario"},
{"location": {"lat": 44.392785100	, "lng": 7.551084600},	"title":	"Palazzo Barberi di Branzola"},
{"location": {"lat": 44.393792800	, "lng": 7.551353100},	"title":	"Kombu - Cuneo"},
{"location": {"lat": 44.394839500	, "lng": 7.550599400},	"title":	"Complesso Monumentale di San Francesco"},
{"location": {"lat": 44.393944000	, "lng": 7.549571000},	"title":	"Santa Croce"},
{"location": {"lat": 44.393143000	, "lng": 7.548738900},	"title":	"Ristorantino l'Oca Nera"},
{"location": {"lat": 44.392608900	, "lng": 7.550048300},	"title":	"BOVE'S macellai dal 1929"},
{"location": {"lat": 44.393676400	, "lng": 7.553401000},	"title":	"Teatro Toselli"},
{"location": {"lat": 44.384048600	, "lng": 7.541627700},	"title":	"Fontana Piazza Europa"},
{"location": {"lat": 44.384003100	, "lng": 7.549706600},	"title":	"Monumento alla Resistenza"},
{"location": {"lat": 44.387457700	, "lng": 7.552056500},	"title":	"Stadio del Nuoto di Cuneo"},
{"location": {"lat": 44.389972700	, "lng": 7.547391600},	"title":	"Museo Casa Galimberti"}
]}
